window.hubway_json = {"type":"FeatureCollection","features":[{"type":"Feature","properties":{"OBJECTID":1329,"id":"3","name":"Colleges of the Fenway - Fenway at Avenue Louis Pasteur","lat":"","long":"","nbBikes":"","nbEmptyDocks":"","latestUpdateTime":""},"geometry":{"type":"Point","coordinates":[-71.10061883950203,42.34011512227757]}},{"type":"Feature","properties":{"OBJECTID":1330,"id":"4","name":"Tremont St at E Berkeley St","lat":"","long":"","nbBikes":"","nbEmptyDocks":"","latestUpdateTime":""},"geometry":{"type":"Point","coordinates":[-71.0696160000585,42.3453920000846]}},{"type":"Feature","properties":{"OBJECTID":1331,"id":"5","name":"Northeastern University - North Parking Lot","lat":"","long":"","nbBikes":"","nbEmptyDocks":"","latestUpdateTime":""},"geometry":{"type":"Point","coordinates":[-71.09017900015567,42.341813999823096]}},{"type":"Feature","properties":{"OBJECTID":1332,"id":"6","name":"Cambridge St at Joy St","lat":"","long":"","nbBikes":"","nbEmptyDocks":"","latestUpdateTime":""},"geometry":{"type":"Point","coordinates":[-71.06520965669037,42.361304069814715]}},{"type":"Feature","properties":{"OBJECTID":1333,"id":"7","name":"Fan Pier","lat":"","long":"","nbBikes":"","nbEmptyDocks":"","latestUpdateTime":""},"geometry":{"type":"Point","coordinates":[-71.04388475407822,42.35294080215376]}},{"type":"Feature","properties":{"OBJECTID":1334,"id":"8","name":"Union Square - Brighton Ave at Cambridge St","lat":"","long":"","nbBikes":"","nbEmptyDocks":"","latestUpdateTime":""},"geometry":{"type":"Point","coordinates":[-71.13731300034387,42.35333399968179]}},{"type":"Feature","properties":{"OBJECTID":1335,"id":"9","name":"Commonwealth Ave at Buick St","lat":"","long":"","nbBikes":"","nbEmptyDocks":"","latestUpdateTime":""},"geometry":{"type":"Point","coordinates":[-71.1156389998359,42.35124600010773]}},{"type":"Feature","properties":{"OBJECTID":1336,"id":"10","name":"B.U. Central - 725 Comm. Ave.","lat":"","long":"","nbBikes":"","nbEmptyDocks":"","latestUpdateTime":""},"geometry":{"type":"Point","coordinates":[-71.10827900030516,42.350405999920135]}},{"type":"Feature","properties":{"OBJECTID":1337,"id":"11","name":"Longwood Ave at Binney St","lat":"","long":"","nbBikes":"","nbEmptyDocks":"","latestUpdateTime":""},"geometry":{"type":"Point","coordinates":[-71.10650000007269,42.338628999791496]}},{"type":"Feature","properties":{"OBJECTID":1338,"id":"12","name":"Ruggles T Stop - Columbus Ave at Melnea Cass Blvd","lat":"","long":"","nbBikes":"","nbEmptyDocks":"","latestUpdateTime":""},"geometry":{"type":"Point","coordinates":[-71.08801916275175,42.336282398366976]}},{"type":"Feature","properties":{"OBJECTID":1339,"id":"13","name":"Boston Medical Center - E Concord St at Harrison Ave","lat":"","long":"","nbBikes":"","nbEmptyDocks":"","latestUpdateTime":""},"geometry":{"type":"Point","coordinates":[-71.07308900013463,42.33643699972224]}},{"type":"Feature","properties":{"OBJECTID":1340,"id":"14","name":"HMS/HSPH - Avenue Louis Pasteur at Longwood Ave","lat":"","long":"","nbBikes":"","nbEmptyDocks":"","latestUpdateTime":""},"geometry":{"type":"Point","coordinates":[-71.10286116560523,42.33741748432907]}},{"type":"Feature","properties":{"OBJECTID":1341,"id":"15","name":"Brighton Mills - 370 Western Ave","lat":"","long":"","nbBikes":"","nbEmptyDocks":"","latestUpdateTime":""},"geometry":{"type":"Point","coordinates":[-71.13776206995102,42.36154570788763]}},{"type":"Feature","properties":{"OBJECTID":1342,"id":"16","name":"Back Bay T Stop - Dartmouth St at Stuart St","lat":"","long":"","nbBikes":"","nbEmptyDocks":"","latestUpdateTime":""},"geometry":{"type":"Point","coordinates":[-71.07657015332028,42.34807412347183]}},{"type":"Feature","properties":{"OBJECTID":1343,"id":"17","name":"Soldiers Field Park - 111 Western Ave","lat":"","long":"","nbBikes":"","nbEmptyDocks":"","latestUpdateTime":""},"geometry":{"type":"Point","coordinates":[-71.11923300028586,42.36506399983371]}},{"type":"Feature","properties":{"OBJECTID":1344,"id":"19","name":"Park Dr at Buswell St","lat":"","long":"","nbBikes":"","nbEmptyDocks":"","latestUpdateTime":""},"geometry":{"type":"Point","coordinates":[-71.10530099979836,42.34724100030415]}},{"type":"Feature","properties":{"OBJECTID":1345,"id":"20","name":"Aquarium T Stop - 200 Atlantic Ave","lat":"","long":"","nbBikes":"","nbEmptyDocks":"","latestUpdateTime":""},"geometry":{"type":"Point","coordinates":[-71.05142980835413,42.35991176114246]}},{"type":"Feature","properties":{"OBJECTID":1346,"id":"21","name":"Prudential Center - Belvedere St","lat":"","long":"","nbBikes":"","nbEmptyDocks":"","latestUpdateTime":""},"geometry":{"type":"Point","coordinates":[-71.08257799970221,42.34595899997871]}},{"type":"Feature","properties":{"OBJECTID":1347,"id":"22","name":"South Station - 700 Atlantic Ave","lat":"","long":"","nbBikes":"","nbEmptyDocks":"","latestUpdateTime":""},"geometry":{"type":"Point","coordinates":[-71.05554700020197,42.35217500030547]}},{"type":"Feature","properties":{"OBJECTID":1348,"id":"23","name":"Boston City Hall - 28 State St","lat":"","long":"","nbBikes":"","nbEmptyDocks":"","latestUpdateTime":""},"geometry":{"type":"Point","coordinates":[-71.05762900038313,42.35892000021675]}},{"type":"Feature","properties":{"OBJECTID":1349,"id":"24","name":"Seaport Square - Seaport Blvd at Northern Ave","lat":"","long":"","nbBikes":"","nbEmptyDocks":"","latestUpdateTime":""},"geometry":{"type":"Point","coordinates":[-71.04436084590746,42.35148193431008]}},{"type":"Feature","properties":{"OBJECTID":1350,"id":"25","name":"South End Library - Tremont St at W Newton St","lat":"","long":"","nbBikes":"","nbEmptyDocks":"","latestUpdateTime":""},"geometry":{"type":"Point","coordinates":[-71.0768469997178,42.341331999905215]}},{"type":"Feature","properties":{"OBJECTID":1351,"id":"26","name":"Washington St at Waltham St","lat":"","long":"","nbBikes":"","nbEmptyDocks":"","latestUpdateTime":""},"geometry":{"type":"Point","coordinates":[-71.06892200029753,42.34152199976577]}},{"type":"Feature","properties":{"OBJECTID":1352,"id":"27","name":"Roxbury Crossing T Stop - Columbus Ave at Tremont St","lat":"","long":"","nbBikes":"","nbEmptyDocks":"","latestUpdateTime":""},"geometry":{"type":"Point","coordinates":[-71.09517100017328,42.331184000239105]}},{"type":"Feature","properties":{"OBJECTID":1353,"id":"29","name":"Innovation Lab - 125 Western Ave at Batten Way","lat":"","long":"","nbBikes":"","nbEmptyDocks":"","latestUpdateTime":""},"geometry":{"type":"Point","coordinates":[-71.12456500006209,42.3637319997762]}},{"type":"Feature","properties":{"OBJECTID":1354,"id":"30","name":"Brigham Circle - Francis St at Huntington Ave","lat":"","long":"","nbBikes":"","nbEmptyDocks":"","latestUpdateTime":""},"geometry":{"type":"Point","coordinates":[-71.10507935307841,42.334397811689314]}},{"type":"Feature","properties":{"OBJECTID":1355,"id":"31","name":"Seaport Hotel - Congress St at Seaport Ln","lat":"","long":"","nbBikes":"","nbEmptyDocks":"","latestUpdateTime":""},"geometry":{"type":"Point","coordinates":[-71.04199782036605,42.34896049740313]}},{"type":"Feature","properties":{"OBJECTID":1356,"id":"32","name":"Landmark Center - Brookline Ave at Park Dr","lat":"","long":"","nbBikes":"","nbEmptyDocks":"","latestUpdateTime":""},"geometry":{"type":"Point","coordinates":[-71.10169708733756,42.345194289577165]}},{"type":"Feature","properties":{"OBJECTID":1357,"id":"33","name":"Kenmore Square","lat":"","long":"","nbBikes":"","nbEmptyDocks":"","latestUpdateTime":""},"geometry":{"type":"Point","coordinates":[-71.09700899995698,42.34870600017342]}},{"type":"Feature","properties":{"OBJECTID":1358,"id":"35","name":"Arch St at Franklin St","lat":"","long":"","nbBikes":"","nbEmptyDocks":"","latestUpdateTime":""},"geometry":{"type":"Point","coordinates":[-71.05825602984136,42.35530156089461]}},{"type":"Feature","properties":{"OBJECTID":1359,"id":"36","name":"Copley Square - Dartmouth St at Boylston St","lat":"","long":"","nbBikes":"","nbEmptyDocks":"","latestUpdateTime":""},"geometry":{"type":"Point","coordinates":[-71.07732653658614,42.34976701005909]}},{"type":"Feature","properties":{"OBJECTID":1360,"id":"37","name":"New Balance - 20 Guest St","lat":"","long":"","nbBikes":"","nbEmptyDocks":"","latestUpdateTime":""},"geometry":{"type":"Point","coordinates":[-71.1467353997146,42.357329218922075]}},{"type":"Feature","properties":{"OBJECTID":1361,"id":"39","name":"Washington St at Rutland St","lat":"","long":"","nbBikes":"","nbEmptyDocks":"","latestUpdateTime":""},"geometry":{"type":"Point","coordinates":[-71.07404082985686,42.33851460200026]}},{"type":"Feature","properties":{"OBJECTID":1362,"id":"40","name":"Lewis Wharf at Atlantic Ave","lat":"","long":"","nbBikes":"","nbEmptyDocks":"","latestUpdateTime":""},"geometry":{"type":"Point","coordinates":[-71.05087700039964,42.36387099994983]}},{"type":"Feature","properties":{"OBJECTID":1363,"id":"41","name":"Packard's Corner - Commonwealth Ave at Brighton Ave","lat":"","long":"","nbBikes":"","nbEmptyDocks":"","latestUpdateTime":""},"geometry":{"type":"Point","coordinates":[-71.12383100011817,42.352261000100256]}},{"type":"Feature","properties":{"OBJECTID":1364,"id":"42","name":"Boylston St at Arlington St","lat":"","long":"","nbBikes":"","nbEmptyDocks":"","latestUpdateTime":""},"geometry":{"type":"Point","coordinates":[-71.07062700001185,42.35203300010876]}},{"type":"Feature","properties":{"OBJECTID":1365,"id":"43","name":"Rowes Wharf at Atlantic Ave","lat":"","long":"","nbBikes":"","nbEmptyDocks":"","latestUpdateTime":""},"geometry":{"type":"Point","coordinates":[-71.0506990001244,42.3571430001515]}},{"type":"Feature","properties":{"OBJECTID":1366,"id":"44","name":"Congress St at North St","lat":"","long":"","nbBikes":"","nbEmptyDocks":"","latestUpdateTime":""},"geometry":{"type":"Point","coordinates":[-71.05745199993282,42.36061300025432]}},{"type":"Feature","properties":{"OBJECTID":1367,"id":"45","name":"Yawkey Way at Boylston St.","lat":"","long":"","nbBikes":"","nbEmptyDocks":"","latestUpdateTime":""},"geometry":{"type":"Point","coordinates":[-71.09785348190108,42.34468084035572]}},{"type":"Feature","properties":{"OBJECTID":1368,"id":"46","name":"Christian Science Plaza - Massachusetts Ave at Westland Ave","lat":"","long":"","nbBikes":"","nbEmptyDocks":"","latestUpdateTime":""},"geometry":{"type":"Point","coordinates":[-71.08582377452048,42.34366582419455]}},{"type":"Feature","properties":{"OBJECTID":1369,"id":"47","name":"Cross St at Hanover St","lat":"","long":"","nbBikes":"","nbEmptyDocks":"","latestUpdateTime":""},"geometry":{"type":"Point","coordinates":[-71.05606699988564,42.362811000115244]}},{"type":"Feature","properties":{"OBJECTID":1370,"id":"48","name":"Post Office Square - Pearl St at Milk St","lat":"","long":"","nbBikes":"","nbEmptyDocks":"","latestUpdateTime":""},"geometry":{"type":"Point","coordinates":[-71.05540699956155,42.35675500028852]}},{"type":"Feature","properties":{"OBJECTID":1371,"id":"49","name":"Stuart St at Charles St","lat":"","long":"","nbBikes":"","nbEmptyDocks":"","latestUpdateTime":""},"geometry":{"type":"Point","coordinates":[-71.06628899957222,42.3511460003105]}},{"type":"Feature","properties":{"OBJECTID":1372,"id":"50","name":"Boylston St at Berkeley St","lat":"","long":"","nbBikes":"","nbEmptyDocks":"","latestUpdateTime":""},"geometry":{"type":"Point","coordinates":[-71.0732924936993,42.35114198249671]}},{"type":"Feature","properties":{"OBJECTID":1373,"id":"51","name":"Washington St at Lenox St","lat":"","long":"","nbBikes":"","nbEmptyDocks":"","latestUpdateTime":""},"geometry":{"type":"Point","coordinates":[-71.07903778587989,42.33509899281829]}},{"type":"Feature","properties":{"OBJECTID":1374,"id":"52","name":"Newbury St at Hereford St","lat":"","long":"","nbBikes":"","nbEmptyDocks":"","latestUpdateTime":""},"geometry":{"type":"Point","coordinates":[-71.08595399969396,42.34871699979582]}},{"type":"Feature","properties":{"OBJECTID":1375,"id":"53","name":"Beacon St at Massachusetts Ave","lat":"","long":"","nbBikes":"","nbEmptyDocks":"","latestUpdateTime":""},"geometry":{"type":"Point","coordinates":[-71.08981087773876,42.35082680637814]}},{"type":"Feature","properties":{"OBJECTID":1376,"id":"54","name":"Tremont St at West St","lat":"","long":"","nbBikes":"","nbEmptyDocks":"","latestUpdateTime":""},"geometry":{"type":"Point","coordinates":[-71.06334799977367,42.354978999819416]}},{"type":"Feature","properties":{"OBJECTID":1377,"id":"55","name":"Boylston St at Massachusetts Ave","lat":"","long":"","nbBikes":"","nbEmptyDocks":"","latestUpdateTime":""},"geometry":{"type":"Point","coordinates":[-71.08808799975367,42.34726499979584]}},{"type":"Feature","properties":{"OBJECTID":1378,"id":"56","name":"Dudley Square - Dudley St at Warren St","lat":"","long":"","nbBikes":"","nbEmptyDocks":"","latestUpdateTime":""},"geometry":{"type":"Point","coordinates":[-71.08416482783751,42.328540462988286]}},{"type":"Feature","properties":{"OBJECTID":1379,"id":"57","name":"Columbus Ave at Massachusetts Ave","lat":"","long":"","nbBikes":"","nbEmptyDocks":"","latestUpdateTime":""},"geometry":{"type":"Point","coordinates":[-71.08138847934906,42.340542615652126]}},{"type":"Feature","properties":{"OBJECTID":1380,"id":"58","name":"Beacon St at Arlington St","lat":"","long":"","nbBikes":"","nbEmptyDocks":"","latestUpdateTime":""},"geometry":{"type":"Point","coordinates":[-71.07284188258313,42.355549323362595]}},{"type":"Feature","properties":{"OBJECTID":1381,"id":"59","name":"Chinatown Gate Plaza","lat":"","long":"","nbBikes":"","nbEmptyDocks":"","latestUpdateTime":""},"geometry":{"type":"Point","coordinates":[-71.05936699970941,42.351355999767314]}},{"type":"Feature","properties":{"OBJECTID":1382,"id":"60","name":"Charles Circle - Charles St at Cambridge St","lat":"","long":"","nbBikes":"","nbEmptyDocks":"","latestUpdateTime":""},"geometry":{"type":"Point","coordinates":[-71.0709281269732,42.360714448625295]}},{"type":"Feature","properties":{"OBJECTID":1383,"id":"61","name":"Boylston St at Fairfield St","lat":"","long":"","nbBikes":"","nbEmptyDocks":"","latestUpdateTime":""},"geometry":{"type":"Point","coordinates":[-71.08238299970853,42.34876200010223]}},{"type":"Feature","properties":{"OBJECTID":1384,"id":"63","name":"Dorchester Ave at Gillette Park","lat":"","long":"","nbBikes":"","nbEmptyDocks":"","latestUpdateTime":""},"geometry":{"type":"Point","coordinates":[-71.05737626566616,42.34404051019572]}},{"type":"Feature","properties":{"OBJECTID":1385,"id":"64","name":"Congress St at Sleeper St","lat":"","long":"","nbBikes":"","nbEmptyDocks":"","latestUpdateTime":""},"geometry":{"type":"Point","coordinates":[-71.04930013458082,42.35100449570164]}},{"type":"Feature","properties":{"OBJECTID":1386,"id":"65","name":"Boston Convention and Exhibition Center - Summer St at West Side Dr","lat":"","long":"","nbBikes":"","nbEmptyDocks":"","latestUpdateTime":""},"geometry":{"type":"Point","coordinates":[-71.04535996923444,42.347763453913934]}},{"type":"Feature","properties":{"OBJECTID":1387,"id":"66","name":"Allston Green District - Griggs St at Commonwealth Ave","lat":"","long":"","nbBikes":"","nbEmptyDocks":"","latestUpdateTime":""},"geometry":{"type":"Point","coordinates":[-71.13394662759703,42.34852014556647]}},{"type":"Feature","properties":{"OBJECTID":1388,"id":"67","name":"MIT at Mass Ave / Amherst St","lat":"","long":"","nbBikes":"","nbEmptyDocks":"","latestUpdateTime":""},"geometry":{"type":"Point","coordinates":[-71.09319799977204,42.35810000025655]}},{"type":"Feature","properties":{"OBJECTID":1389,"id":"68","name":"Central Square at Mass Ave / Essex St","lat":"","long":"","nbBikes":"","nbEmptyDocks":"","latestUpdateTime":""},"geometry":{"type":"Point","coordinates":[-71.10309999979151,42.3650699999973]}},{"type":"Feature","properties":{"OBJECTID":1390,"id":"69","name":"Coolidge Corner - Beacon St @ Centre St","lat":"","long":"","nbBikes":"","nbEmptyDocks":"","latestUpdateTime":""},"geometry":{"type":"Point","coordinates":[-71.12333800019867,42.341597999947595]}},{"type":"Feature","properties":{"OBJECTID":1391,"id":"70","name":"Harvard Kennedy School at Bennett St / Eliot St","lat":"","long":"","nbBikes":"","nbEmptyDocks":"","latestUpdateTime":""},"geometry":{"type":"Point","coordinates":[-71.122269630238,42.37199165395192]}},{"type":"Feature","properties":{"OBJECTID":1392,"id":"71","name":"Conway Park - Somerville Avenue","lat":"","long":"","nbBikes":"","nbEmptyDocks":"","latestUpdateTime":""},"geometry":{"type":"Point","coordinates":[-71.10759300004182,42.3834050001727]}},{"type":"Feature","properties":{"OBJECTID":1393,"id":"72","name":"One Broadway / Kendall Sq at Main St / 3rd St","lat":"","long":"","nbBikes":"","nbEmptyDocks":"","latestUpdateTime":""},"geometry":{"type":"Point","coordinates":[-71.0841050000396,42.36261299990591]}},{"type":"Feature","properties":{"OBJECTID":1394,"id":"73","name":"Harvard Square at Brattle St / Eliot St","lat":"","long":"","nbBikes":"","nbEmptyDocks":"","latestUpdateTime":""},"geometry":{"type":"Point","coordinates":[-71.12088600012164,42.37323100017124]}},{"type":"Feature","properties":{"OBJECTID":1395,"id":"74","name":"Harvard Square at Mass Ave/ Dunster","lat":"","long":"","nbBikes":"","nbEmptyDocks":"","latestUpdateTime":""},"geometry":{"type":"Point","coordinates":[-71.11857899980957,42.37326799989992]}},{"type":"Feature","properties":{"OBJECTID":1396,"id":"75","name":"Lafayette Square at Mass Ave / Main St / Columbia St","lat":"","long":"","nbBikes":"","nbEmptyDocks":"","latestUpdateTime":""},"geometry":{"type":"Point","coordinates":[-71.10057324191654,42.36346469287681]}},{"type":"Feature","properties":{"OBJECTID":1397,"id":"76","name":"Central Sq Post Office / Cambridge City Hall at Mass Ave / Pleasant St","lat":"","long":"","nbBikes":"","nbEmptyDocks":"","latestUpdateTime":""},"geometry":{"type":"Point","coordinates":[-71.10549499996712,42.366425999702955]}},{"type":"Feature","properties":{"OBJECTID":1398,"id":"77","name":"Somerville City Hall","lat":"","long":"","nbBikes":"","nbEmptyDocks":"","latestUpdateTime":""},"geometry":{"type":"Point","coordinates":[-71.09812000036776,42.386843999871424]}},{"type":"Feature","properties":{"OBJECTID":1399,"id":"78","name":"Union Square - Somerville","lat":"","long":"","nbBikes":"","nbEmptyDocks":"","latestUpdateTime":""},"geometry":{"type":"Point","coordinates":[-71.09531900031129,42.37963699996065]}},{"type":"Feature","properties":{"OBJECTID":1400,"id":"79","name":"Beacon St at Washington / Kirkland","lat":"","long":"","nbBikes":"","nbEmptyDocks":"","latestUpdateTime":""},"geometry":{"type":"Point","coordinates":[-71.10566800021948,42.37841999993648]}},{"type":"Feature","properties":{"OBJECTID":1401,"id":"80","name":"MIT Stata Center at Vassar St / Main St","lat":"","long":"","nbBikes":"","nbEmptyDocks":"","latestUpdateTime":""},"geometry":{"type":"Point","coordinates":[-71.09205260017409,42.36196220027543]}},{"type":"Feature","properties":{"OBJECTID":1402,"id":"81","name":"Boylston St at Washington St","lat":"","long":"","nbBikes":"","nbEmptyDocks":"","latestUpdateTime":""},"geometry":{"type":"Point","coordinates":[-71.06267900012708,42.35240899982682]}},{"type":"Feature","properties":{"OBJECTID":1403,"id":"82","name":"Washington Square at Washington St. / Beacon St.","lat":"","long":"","nbBikes":"","nbEmptyDocks":"","latestUpdateTime":""},"geometry":{"type":"Point","coordinates":[-71.13492999986381,42.33933500024971]}},{"type":"Feature","properties":{"OBJECTID":1404,"id":"84","name":"CambridgeSide Galleria - CambridgeSide PL at Land Blvd","lat":"","long":"","nbBikes":"","nbEmptyDocks":"","latestUpdateTime":""},"geometry":{"type":"Point","coordinates":[-71.07647199979907,42.36698099971367]}},{"type":"Feature","properties":{"OBJECTID":1405,"id":"85","name":"Spaulding Rehabilitation Hospital - Charlestown Navy Yard","lat":"","long":"","nbBikes":"","nbEmptyDocks":"","latestUpdateTime":""},"geometry":{"type":"Point","coordinates":[-71.04892699956461,42.37833800025848]}},{"type":"Feature","properties":{"OBJECTID":1406,"id":"87","name":"Harvard University Housing - 115 Putnam Ave at Peabody Terrace","lat":"","long":"","nbBikes":"","nbEmptyDocks":"","latestUpdateTime":""},"geometry":{"type":"Point","coordinates":[-71.11421399960577,42.36662099983493]}},{"type":"Feature","properties":{"OBJECTID":1407,"id":"88","name":"Inman Square at Vellucci Plaza / Hampshire St","lat":"","long":"","nbBikes":"","nbEmptyDocks":"","latestUpdateTime":""},"geometry":{"type":"Point","coordinates":[-71.10142699986424,42.37403500005651]}},{"type":"Feature","properties":{"OBJECTID":1408,"id":"89","name":"Harvard Law School at Mass Ave / Jarvis St","lat":"","long":"","nbBikes":"","nbEmptyDocks":"","latestUpdateTime":""},"geometry":{"type":"Point","coordinates":[-71.11994499959017,42.379010999781784]}},{"type":"Feature","properties":{"OBJECTID":1409,"id":"90","name":"Lechmere Station at Cambridge St / First St","lat":"","long":"","nbBikes":"","nbEmptyDocks":"","latestUpdateTime":""},"geometry":{"type":"Point","coordinates":[-71.07652899970047,42.37067699994005]}},{"type":"Feature","properties":{"OBJECTID":1410,"id":"91","name":"One Kendall Square at Hampshire St / Portland St","lat":"","long":"","nbBikes":"","nbEmptyDocks":"","latestUpdateTime":""},"geometry":{"type":"Point","coordinates":[-71.09168999970123,42.36627700023572]}},{"type":"Feature","properties":{"OBJECTID":1411,"id":"92","name":"University of Massachusetts Boston - Integrated Sciences Complex","lat":"","long":"","nbBikes":"","nbEmptyDocks":"","latestUpdateTime":""},"geometry":{"type":"Point","coordinates":[-71.04126900010806,42.31450700029359]}},{"type":"Feature","properties":{"OBJECTID":1412,"id":"93","name":"JFK/UMass T Stop","lat":"","long":"","nbBikes":"","nbEmptyDocks":"","latestUpdateTime":""},"geometry":{"type":"Point","coordinates":[-71.05118036236941,42.32033973493953]}},{"type":"Feature","properties":{"OBJECTID":1413,"id":"94","name":"Main St at Austin St","lat":"","long":"","nbBikes":"","nbEmptyDocks":"","latestUpdateTime":""},"geometry":{"type":"Point","coordinates":[-71.06460800014737,42.37560300024102]}},{"type":"Feature","properties":{"OBJECTID":1414,"id":"95","name":"Cambridge St - at Columbia St / Webster Ave","lat":"","long":"","nbBikes":"","nbEmptyDocks":"","latestUpdateTime":""},"geometry":{"type":"Point","coordinates":[-71.09444499972696,42.37296899976476]}},{"type":"Feature","properties":{"OBJECTID":1415,"id":"96","name":"Cambridge Main Library at Broadway / Trowbridge St","lat":"","long":"","nbBikes":"","nbEmptyDocks":"","latestUpdateTime":""},"geometry":{"type":"Point","coordinates":[-71.11107500033879,42.37337900028252]}},{"type":"Feature","properties":{"OBJECTID":1416,"id":"97","name":"Harvard University River Houses at DeWolfe St / Cowperthwaite St","lat":"","long":"","nbBikes":"","nbEmptyDocks":"","latestUpdateTime":""},"geometry":{"type":"Point","coordinates":[-71.11714124709565,42.36919031772533]}},{"type":"Feature","properties":{"OBJECTID":1417,"id":"98","name":"Warren St at Chelsea St","lat":"","long":"","nbBikes":"","nbEmptyDocks":"","latestUpdateTime":""},"geometry":{"type":"Point","coordinates":[-71.06029200034736,42.37184800022063]}},{"type":"Feature","properties":{"OBJECTID":1418,"id":"99","name":"Wilson Square","lat":"","long":"","nbBikes":"","nbEmptyDocks":"","latestUpdateTime":""},"geometry":{"type":"Point","coordinates":[-71.11334099974468,42.385581999752645]}},{"type":"Feature","properties":{"OBJECTID":1419,"id":"100","name":"Davis Square","lat":"","long":"","nbBikes":"","nbEmptyDocks":"","latestUpdateTime":""},"geometry":{"type":"Point","coordinates":[-71.12302400037932,42.39696900011136]}},{"type":"Feature","properties":{"OBJECTID":1420,"id":"102","name":"Powder House Circle - Nathan Tufts Park","lat":"","long":"","nbBikes":"","nbEmptyDocks":"","latestUpdateTime":""},"geometry":{"type":"Point","coordinates":[-71.11677199998799,42.40087699974544]}},{"type":"Feature","properties":{"OBJECTID":1421,"id":"103","name":"JFK Crossing at Harvard St. / Thorndike St.","lat":"","long":"","nbBikes":"","nbEmptyDocks":"","latestUpdateTime":""},"geometry":{"type":"Point","coordinates":[-71.1283739996989,42.34656300025696]}},{"type":"Feature","properties":{"OBJECTID":1422,"id":"104","name":"Harvard University Radcliffe Quadrangle at Shepard St / Garden St","lat":"","long":"","nbBikes":"","nbEmptyDocks":"","latestUpdateTime":""},"geometry":{"type":"Point","coordinates":[-71.1251070003854,42.38028700002307]}},{"type":"Feature","properties":{"OBJECTID":1423,"id":"105","name":"Lower Cambridgeport at Magazine St/Riverside Rd","lat":"","long":"","nbBikes":"","nbEmptyDocks":"","latestUpdateTime":""},"geometry":{"type":"Point","coordinates":[-71.11387163368467,42.35721850350003]}},{"type":"Feature","properties":{"OBJECTID":1424,"id":"106","name":"Dudley Town Common - Mt Pleasant Ave at Blue Hill Ave","lat":"","long":"","nbBikes":"","nbEmptyDocks":"","latestUpdateTime":""},"geometry":{"type":"Point","coordinates":[-71.07535399971559,42.3253329997708]}},{"type":"Feature","properties":{"OBJECTID":1425,"id":"107","name":"Ames St at Main St","lat":"","long":"","nbBikes":"","nbEmptyDocks":"","latestUpdateTime":""},"geometry":{"type":"Point","coordinates":[-71.08821999999815,42.362499999831954]}},{"type":"Feature","properties":{"OBJECTID":1426,"id":"108","name":"Harvard University / SEAS Cruft-Pierce Halls at 29 Oxford St","lat":"","long":"","nbBikes":"","nbEmptyDocks":"","latestUpdateTime":""},"geometry":{"type":"Point","coordinates":[-71.11686499987442,42.377944999675975]}},{"type":"Feature","properties":{"OBJECTID":1427,"id":"109","name":"TD Garden - West End Park","lat":"","long":"","nbBikes":"","nbEmptyDocks":"","latestUpdateTime":""},"geometry":{"type":"Point","coordinates":[-71.0644666852717,42.36590788469238]}},{"type":"Feature","properties":{"OBJECTID":1428,"id":"110","name":"Harvard University Gund Hall at Quincy St / Kirkland S","lat":"","long":"","nbBikes":"","nbEmptyDocks":"","latestUpdateTime":""},"geometry":{"type":"Point","coordinates":[-71.1140250003582,42.37636899968438]}},{"type":"Feature","properties":{"OBJECTID":1429,"id":"111","name":"Packard Ave / Powderhouse Blvd","lat":"","long":"","nbBikes":"","nbEmptyDocks":"","latestUpdateTime":""},"geometry":{"type":"Point","coordinates":[-71.12341299964342,42.404489999941575]}},{"type":"Feature","properties":{"OBJECTID":1430,"id":"112","name":"Clarendon Hill at Broadway","lat":"","long":"","nbBikes":"","nbEmptyDocks":"","latestUpdateTime":""},"geometry":{"type":"Point","coordinates":[-71.13244599999973,42.406302000031495]}},{"type":"Feature","properties":{"OBJECTID":1431,"id":"113","name":"Andrew T Stop - Dorchester Ave at Dexter St","lat":"","long":"","nbBikes":"","nbEmptyDocks":"","latestUpdateTime":""},"geometry":{"type":"Point","coordinates":[-71.05701684972098,42.33047365072533]}},{"type":"Feature","properties":{"OBJECTID":1432,"id":"114","name":"Teele Square at 239 Holland St","lat":"","long":"","nbBikes":"","nbEmptyDocks":"","latestUpdateTime":""},"geometry":{"type":"Point","coordinates":[-71.12690800035918,42.40276299991644]}},{"type":"Feature","properties":{"OBJECTID":1433,"id":"115","name":"Porter Square Station","lat":"","long":"","nbBikes":"","nbEmptyDocks":"","latestUpdateTime":""},"geometry":{"type":"Point","coordinates":[-71.11908400032296,42.38799500026945]}},{"type":"Feature","properties":{"OBJECTID":1434,"id":"116","name":"359 Broadway - Broadway at Fayette Street","lat":"","long":"","nbBikes":"","nbEmptyDocks":"","latestUpdateTime":""},"geometry":{"type":"Point","coordinates":[-71.10441200004375,42.370802999960844]}},{"type":"Feature","properties":{"OBJECTID":1435,"id":"117","name":"Binney St / Sixth St","lat":"","long":"","nbBikes":"","nbEmptyDocks":"","latestUpdateTime":""},"geometry":{"type":"Point","coordinates":[-71.08638800006221,42.366095000063936]}},{"type":"Feature","properties":{"OBJECTID":1436,"id":"118","name":"Linear Park - Mass. Ave. at Cameron Ave. ","lat":"","long":"","nbBikes":"","nbEmptyDocks":"","latestUpdateTime":""},"geometry":{"type":"Point","coordinates":[-71.13051600015453,42.39782800013164]}},{"type":"Feature","properties":{"OBJECTID":1437,"id":"119","name":"South Boston Library - 646 E Broadway","lat":"","long":"","nbBikes":"","nbEmptyDocks":"","latestUpdateTime":""},"geometry":{"type":"Point","coordinates":[-71.03877000017535,42.33574099977888]}},{"type":"Feature","properties":{"OBJECTID":1438,"id":"120","name":"Charles st and Beacon St","lat":"","long":"","nbBikes":"","nbEmptyDocks":"","latestUpdateTime":""},"geometry":{"type":"Point","coordinates":[-71.069848999687,42.356052000129864]}},{"type":"Feature","properties":{"OBJECTID":1439,"id":"121","name":"W Broadway at Dorchester St","lat":"","long":"","nbBikes":"","nbEmptyDocks":"","latestUpdateTime":""},"geometry":{"type":"Point","coordinates":[-71.04585900044275,42.33569299995681]}},{"type":"Feature","properties":{"OBJECTID":1440,"id":"122","name":"Burlington Ave at Brookline Ave","lat":"","long":"","nbBikes":"","nbEmptyDocks":"","latestUpdateTime":""},"geometry":{"type":"Point","coordinates":[-71.10069399974523,42.34573300015023]}},{"type":"Feature","properties":{"OBJECTID":1441,"id":"123","name":"JP Center","lat":"","long":"","nbBikes":"","nbEmptyDocks":"","latestUpdateTime":""},"geometry":{"type":"Point","coordinates":[-71.11413999998591,42.313155999852775]}},{"type":"Feature","properties":{"OBJECTID":1442,"id":"124","name":"Curtis Hall - South St at Centre St","lat":"","long":"","nbBikes":"","nbEmptyDocks":"","latestUpdateTime":""},"geometry":{"type":"Point","coordinates":[-71.11542999959853,42.30905399987985]}},{"type":"Feature","properties":{"OBJECTID":1443,"id":"125","name":"Hyde Square - Barbara St at Centre St","lat":"","long":"","nbBikes":"","nbEmptyDocks":"","latestUpdateTime":""},"geometry":{"type":"Point","coordinates":[-71.11188411740676,42.320902962900036]}},{"type":"Feature","properties":{"OBJECTID":1444,"id":"126","name":"Egleston Square - Atherton St at Washington St","lat":"","long":"","nbBikes":"","nbEmptyDocks":"","latestUpdateTime":""},"geometry":{"type":"Point","coordinates":[-71.09863400020366,42.31569200020615]}},{"type":"Feature","properties":{"OBJECTID":1445,"id":"128","name":"E Cottage St at Columbia Rd","lat":"","long":"","nbBikes":"","nbEmptyDocks":"","latestUpdateTime":""},"geometry":{"type":"Point","coordinates":[-71.06198000034324,42.3205609999201]}},{"type":"Feature","properties":{"OBJECTID":1446,"id":"129","name":"Hayes Square - Vine St at Moulton St","lat":"","long":"","nbBikes":"","nbEmptyDocks":"","latestUpdateTime":""},"geometry":{"type":"Point","coordinates":[-71.05660500001099,42.377021999905715]}},{"type":"Feature","properties":{"OBJECTID":1447,"id":"130","name":"Upham's Corner","lat":"","long":"","nbBikes":"","nbEmptyDocks":"","latestUpdateTime":""},"geometry":{"type":"Point","coordinates":[-71.0653630000077,42.317283000171514]}},{"type":"Feature","properties":{"OBJECTID":1448,"id":"131","name":"Jackson Square T Stop","lat":"","long":"","nbBikes":"","nbEmptyDocks":"","latestUpdateTime":""},"geometry":{"type":"Point","coordinates":[-71.10014140648808,42.322931171854464]}},{"type":"Feature","properties":{"OBJECTID":1449,"id":"133","name":"Green Street T Stop - Green St at Amory St","lat":"","long":"","nbBikes":"","nbEmptyDocks":"","latestUpdateTime":""},"geometry":{"type":"Point","coordinates":[-71.10734100014675,42.31057899972633]}},{"type":"Feature","properties":{"OBJECTID":1450,"id":"134","name":"Boylston St at Dartmouth St","lat":"","long":"","nbBikes":"","nbEmptyDocks":"","latestUpdateTime":""},"geometry":{"type":"Point","coordinates":[-71.07654999961687,42.35041299997364]}},{"type":"Feature","properties":{"OBJECTID":1451,"id":"135","name":"ID Building East","lat":"","long":"","nbBikes":"","nbEmptyDocks":"","latestUpdateTime":""},"geometry":{"type":"Point","coordinates":[-71.02866399994141,42.344827000201775]}},{"type":"Feature","properties":{"OBJECTID":1452,"id":"136","name":"ID Building West","lat":"","long":"","nbBikes":"","nbEmptyDocks":"","latestUpdateTime":""},"geometry":{"type":"Point","coordinates":[-71.03161399996083,42.344795999765175]}},{"type":"Feature","properties":{"OBJECTID":1453,"id":"137","name":"Magoun Square at Trum Field","lat":"","long":"","nbBikes":"","nbEmptyDocks":"","latestUpdateTime":""},"geometry":{"type":"Point","coordinates":[-71.10781800017271,42.39836499969379]}},{"type":"Feature","properties":{"OBJECTID":1454,"id":"138","name":"Newmarket Square T Stop - Massachusetts Ave at Newmarket Square","lat":"","long":"","nbBikes":"","nbEmptyDocks":"","latestUpdateTime":""},"geometry":{"type":"Point","coordinates":[-71.0664979998096,42.32659899974831]}},{"type":"Feature","properties":{"OBJECTID":1455,"id":"139","name":"Dana Park","lat":"","long":"","nbBikes":"","nbEmptyDocks":"","latestUpdateTime":""},"geometry":{"type":"Point","coordinates":[-71.10809952050467,42.36178043983622]}},{"type":"Feature","properties":{"OBJECTID":1456,"id":"140","name":"Danehy Park","lat":"","long":"","nbBikes":"","nbEmptyDocks":"","latestUpdateTime":""},"geometry":{"type":"Point","coordinates":[-71.1327880003065,42.38896600027909]}},{"type":"Feature","properties":{"OBJECTID":1457,"id":"141","name":"Kendall Street","lat":"","long":"","nbBikes":"","nbEmptyDocks":"","latestUpdateTime":""},"geometry":{"type":"Point","coordinates":[-71.0821679232666,42.36356015824002]}},{"type":"Feature","properties":{"OBJECTID":1458,"id":"142","name":"Alewife Station at Russell Field","lat":"","long":"","nbBikes":"","nbEmptyDocks":"","latestUpdateTime":""},"geometry":{"type":"Point","coordinates":[-71.13945900009914,42.39610500017628]}},{"type":"Feature","properties":{"OBJECTID":1459,"id":"143","name":"EF - North Point Park","lat":"","long":"","nbBikes":"","nbEmptyDocks":"","latestUpdateTime":""},"geometry":{"type":"Point","coordinates":[-71.06995699964203,42.36988500027946]}},{"type":"Feature","properties":{"OBJECTID":1460,"id":"145","name":"Rindge Avenue - O'Neill Library","lat":"","long":"","nbBikes":"","nbEmptyDocks":"","latestUpdateTime":""},"geometry":{"type":"Point","coordinates":[-71.12904200041888,42.3927659997044]}},{"type":"Feature","properties":{"OBJECTID":1461,"id":"146","name":"Murphy Skating Rink - 1880 Day Blvd","lat":"","long":"","nbBikes":"","nbEmptyDocks":"","latestUpdateTime":""},"geometry":{"type":"Point","coordinates":[-71.02373899987096,42.33644800016325]}},{"type":"Feature","properties":{"OBJECTID":1462,"id":"149","name":"175 N Harvard St","lat":"","long":"","nbBikes":"","nbEmptyDocks":"","latestUpdateTime":""},"geometry":{"type":"Point","coordinates":[-71.12916399971931,42.363795999751105]}},{"type":"Feature","properties":{"OBJECTID":1463,"id":"150","name":"State Street at Channel Center","lat":"","long":"","nbBikes":"","nbEmptyDocks":"","latestUpdateTime":""},"geometry":{"type":"Point","coordinates":[-71.05260800005321,42.344136999674355]}},{"type":"Feature","properties":{"OBJECTID":1464,"id":"151","name":"Surface Rd at India St","lat":"","long":"","nbBikes":"","nbEmptyDocks":"","latestUpdateTime":""},"geometry":{"type":"Point","coordinates":[-71.05216299981429,42.358155000086754]}},{"type":"Feature","properties":{"OBJECTID":1465,"id":"152","name":"Ink Block - Harrison Ave at Herald St","lat":"","long":"","nbBikes":"","nbEmptyDocks":"","latestUpdateTime":""},"geometry":{"type":"Point","coordinates":[-71.06318700011518,42.34590099976534]}},{"type":"Feature","properties":{"OBJECTID":1466,"id":"159","name":"S Huntington Ave at Heath St","lat":"","long":"","nbBikes":"","nbEmptyDocks":"","latestUpdateTime":""},"geometry":{"type":"Point","coordinates":[-71.11089709977655,42.3279726996723]}},{"type":"Feature","properties":{"OBJECTID":1467,"id":"160","name":"Wentworth Institute of Technology - Huntington Ave at Vancouver St","lat":"","long":"","nbBikes":"","nbEmptyDocks":"","latestUpdateTime":""},"geometry":{"type":"Point","coordinates":[-71.09627097825555,42.33758601082336]}},{"type":"Feature","properties":{"OBJECTID":1468,"id":"161","name":"W Broadway at D St","lat":"","long":"","nbBikes":"","nbEmptyDocks":"","latestUpdateTime":""},"geometry":{"type":"Point","coordinates":[-71.05144320043838,42.33910849985129]}},{"type":"Feature","properties":{"OBJECTID":1469,"id":"162","name":"Franklin Park - Seaver St at Humbolt Ave","lat":"","long":"","nbBikes":"","nbEmptyDocks":"","latestUpdateTime":""},"geometry":{"type":"Point","coordinates":[-71.09222500035185,42.30979600023298]}},{"type":"Feature","properties":{"OBJECTID":1470,"id":"163","name":"The Lawn on D","lat":"","long":"","nbBikes":"","nbEmptyDocks":"","latestUpdateTime":""},"geometry":{"type":"Point","coordinates":[-71.04402400013379,42.34479200013604]}},{"type":"Feature","properties":{"OBJECTID":1471,"id":"167","name":"Ryan Playground - Dorchester Ave at Harbor View St","lat":"","long":"","nbBikes":"","nbEmptyDocks":"","latestUpdateTime":""},"geometry":{"type":"Point","coordinates":[-71.05666399956222,42.31764200001611]}},{"type":"Feature","properties":{"OBJECTID":1472,"id":"169","name":"Edwards Playground - Main St at Eden St","lat":"","long":"","nbBikes":"","nbEmptyDocks":"","latestUpdateTime":""},"geometry":{"type":"Point","coordinates":[-71.06860699975496,42.3789649998744]}},{"type":"Feature","properties":{"OBJECTID":1473,"id":"170","name":"Franklin Park Zoo - Franklin Park Rd at Blue Hill Ave","lat":"","long":"","nbBikes":"","nbEmptyDocks":"","latestUpdateTime":""},"geometry":{"type":"Point","coordinates":[-71.08534699997163,42.30346900014823]}},{"type":"Feature","properties":{"OBJECTID":1474,"id":"171","name":"Bunker Hill Community College","lat":"","long":"","nbBikes":"","nbEmptyDocks":"","latestUpdateTime":""},"geometry":{"type":"Point","coordinates":[-71.06905996805045,42.37408991426444]}},{"type":"Feature","properties":{"OBJECTID":1475,"id":"173","name":"Savin Hill T Stop - S Sydney St at Bay St","lat":"","long":"","nbBikes":"","nbEmptyDocks":"","latestUpdateTime":""},"geometry":{"type":"Point","coordinates":[-71.05390000021397,42.310599999899345]}},{"type":"Feature","properties":{"OBJECTID":1476,"id":"174","name":"Washington St at Brock St","lat":"","long":"","nbBikes":"","nbEmptyDocks":"","latestUpdateTime":""},"geometry":{"type":"Point","coordinates":[-71.16031676528883,42.3489528465609]}},{"type":"Feature","properties":{"OBJECTID":1477,"id":"175","name":"Brighton Center - Washington St at Cambridge St","lat":"","long":"","nbBikes":"","nbEmptyDocks":"","latestUpdateTime":""},"geometry":{"type":"Point","coordinates":[-71.15027189271501,42.34894857233949]}},{"type":"Feature","properties":{"OBJECTID":1478,"id":"176","name":"Lesley University","lat":"","long":"","nbBikes":"","nbEmptyDocks":"","latestUpdateTime":""},"geometry":{"type":"Point","coordinates":[-71.11901879341312,42.38674802051295]}},{"type":"Feature","properties":{"OBJECTID":1479,"id":"177","name":"University Park","lat":"","long":"","nbBikes":"","nbEmptyDocks":"","latestUpdateTime":""},"geometry":{"type":"Point","coordinates":[-71.10006093989651,42.36264779092052]}},{"type":"Feature","properties":{"OBJECTID":1480,"id":"178","name":"MIT Pacific St at Purrington St","lat":"","long":"","nbBikes":"","nbEmptyDocks":"","latestUpdateTime":""},"geometry":{"type":"Point","coordinates":[-71.10129475617632,42.35957320109852]}},{"type":"Feature","properties":{"OBJECTID":1481,"id":"179","name":"MIT Vassar St","lat":"","long":"","nbBikes":"","nbEmptyDocks":"","latestUpdateTime":""},"geometry":{"type":"Point","coordinates":[-71.10394477817964,42.35560121336724]}},{"type":"Feature","properties":{"OBJECTID":1482,"id":"180","name":"Mt Auburn","lat":"","long":"","nbBikes":"","nbEmptyDocks":"","latestUpdateTime":""},"geometry":{"type":"Point","coordinates":[-71.13320231409531,42.37478628731895]}},{"type":"Feature","properties":{"OBJECTID":1483,"id":"182","name":"Museum of Science","lat":"","long":"","nbBikes":"","nbEmptyDocks":"","latestUpdateTime":""},"geometry":{"type":"Point","coordinates":[-71.07116281992602,42.36769018016528]}},{"type":"Feature","properties":{"OBJECTID":1484,"id":"183","name":"Alewife MBTA at Steel Place","lat":"","long":"","nbBikes":"","nbEmptyDocks":"","latestUpdateTime":""},"geometry":{"type":"Point","coordinates":[-71.1426061390009,42.39558845683657]}},{"type":"Feature","properties":{"OBJECTID":1485,"id":"184","name":"Sidney Research Campus/ Erie Street at Waverly","lat":"","long":"","nbBikes":"","nbEmptyDocks":"","latestUpdateTime":""},"geometry":{"type":"Point","coordinates":[-71.10393404960018,42.35775309496191]}},{"type":"Feature","properties":{"OBJECTID":1486,"id":"185","name":"Third at Binney","lat":"","long":"","nbBikes":"","nbEmptyDocks":"","latestUpdateTime":""},"geometry":{"type":"Point","coordinates":[-71.0827714204576,42.365444861072646]}},{"type":"Feature","properties":{"OBJECTID":1487,"id":"186","name":"Congress St at Northern Ave","lat":"","long":"","nbBikes":"","nbEmptyDocks":"","latestUpdateTime":""},"geometry":{"type":"Point","coordinates":[-71.03764000039632,42.348100000194634]}},{"type":"Feature","properties":{"OBJECTID":1488,"id":"189","name":"Kendall T","lat":"","long":"","nbBikes":"","nbEmptyDocks":"","latestUpdateTime":""},"geometry":{"type":"Point","coordinates":[-71.08495473892474,42.36242784288397]}},{"type":"Feature","properties":{"OBJECTID":1489,"id":"190","name":"Nashua Street at Red Auerbach Way","lat":"","long":"","nbBikes":"","nbEmptyDocks":"","latestUpdateTime":""},"geometry":{"type":"Point","coordinates":[-71.06426300036587,42.3656730002409]}},{"type":"Feature","properties":{"OBJECTID":1490,"id":"192","name":"Purchase St at Pearl St","lat":"","long":"","nbBikes":"","nbEmptyDocks":"","latestUpdateTime":""},"geometry":{"type":"Point","coordinates":[-71.05318100033867,42.35465900019371]}},{"type":"Feature","properties":{"OBJECTID":1491,"id":"193","name":"Brookline Village - Station Street @ MBTA","lat":"","long":"","nbBikes":"","nbEmptyDocks":"","latestUpdateTime":""},"geometry":{"type":"Point","coordinates":[-71.11658334749013,42.33289074065805]}},{"type":"Feature","properties":{"OBJECTID":1492,"id":"194","name":"Broadway St at Mt Pleasant St","lat":"","long":"","nbBikes":"","nbEmptyDocks":"","latestUpdateTime":""},"geometry":{"type":"Point","coordinates":[-71.07828140261402,42.38614141138322]}},{"type":"Feature","properties":{"OBJECTID":1493,"id":"195","name":"Brian P. Murphy Staircase at Child Street","lat":"","long":"","nbBikes":"","nbEmptyDocks":"","latestUpdateTime":""},"geometry":{"type":"Point","coordinates":[-71.07202649078287,42.372059701144956]}},{"type":"Feature","properties":{"OBJECTID":1494,"id":"196","name":"Roxbury YMCA - Warren St at MLK Blvd","lat":"","long":"","nbBikes":"","nbEmptyDocks":"","latestUpdateTime":""},"geometry":{"type":"Point","coordinates":[-71.08243078020018,42.31787329377875]}},{"type":"Feature","properties":{"OBJECTID":1495,"id":"197","name":"MLK Blvd at Washington St","lat":"","long":"","nbBikes":"","nbEmptyDocks":"","latestUpdateTime":""},"geometry":{"type":"Point","coordinates":[-71.09126061218194,42.321438142156126]}},{"type":"Feature","properties":{"OBJECTID":1496,"id":"199","name":"Upham's Corner T Stop - Magnolia St at Dudley St","lat":"","long":"","nbBikes":"","nbEmptyDocks":"","latestUpdateTime":""},"geometry":{"type":"Point","coordinates":[-71.06978148231023,42.318697341514444]}},{"type":"Feature","properties":{"OBJECTID":1497,"id":"200","name":"Washington St at Melnea Cass Blvd","lat":"","long":"","nbBikes":"","nbEmptyDocks":"","latestUpdateTime":""},"geometry":{"type":"Point","coordinates":[-71.08119799967791,42.33281699976247]}},{"type":"Feature","properties":{"OBJECTID":1498,"id":"201","name":"NCAAA - Walnut Ave at Crawford St","lat":"","long":"","nbBikes":"","nbEmptyDocks":"","latestUpdateTime":""},"geometry":{"type":"Point","coordinates":[-71.09194599979428,42.31690199986511]}},{"type":"Feature","properties":{"OBJECTID":1499,"id":"202","name":"Grove Hall Library - 41 Geneva Ave","lat":"","long":"","nbBikes":"","nbEmptyDocks":"","latestUpdateTime":""},"geometry":{"type":"Point","coordinates":[-71.0809519996306,42.307910000205936]}},{"type":"Feature","properties":{"OBJECTID":1500,"id":"203","name":"Columbia Rd at Ceylon St","lat":"","long":"","nbBikes":"","nbEmptyDocks":"","latestUpdateTime":""},"geometry":{"type":"Point","coordinates":[-71.07289999998875,42.30957200025839]}},{"type":"Feature","properties":{"OBJECTID":1501,"id":"204","name":"Walnut Ave at Warren St","lat":"","long":"","nbBikes":"","nbEmptyDocks":"","latestUpdateTime":""},"geometry":{"type":"Point","coordinates":[-71.08323499965324,42.32408100021265]}},{"type":"Feature","properties":{"OBJECTID":1502,"id":"205","name":"Bowdoin St at Quincy St","lat":"","long":"","nbBikes":"","nbEmptyDocks":"","latestUpdateTime":""},"geometry":{"type":"Point","coordinates":[-71.06512248507352,42.30785224259499]}},{"type":"Feature","properties":{"OBJECTID":1503,"id":"207","name":"Faneuil St at Market St","lat":"","long":"","nbBikes":"","nbEmptyDocks":"","latestUpdateTime":""},"geometry":{"type":"Point","coordinates":[-71.15022599958377,42.35483999988967]}},{"type":"Feature","properties":{"OBJECTID":1504,"id":"208","name":"Oak Square - 615 Washington St","lat":"","long":"","nbBikes":"","nbEmptyDocks":"","latestUpdateTime":""},"geometry":{"type":"Point","coordinates":[-71.16649100032261,42.35056999973534]}},{"type":"Feature","properties":{"OBJECTID":1505,"id":"209","name":"Chelsea St at Saratoga St","lat":"","long":"","nbBikes":"","nbEmptyDocks":"","latestUpdateTime":""},"geometry":{"type":"Point","coordinates":[-71.02744799994863,42.37977200005252]}},{"type":"Feature","properties":{"OBJECTID":1506,"id":"210","name":"Bennington St at Byron St","lat":"","long":"","nbBikes":"","nbEmptyDocks":"","latestUpdateTime":""},"geometry":{"type":"Point","coordinates":[-71.0161203151828,42.38337841870922]}},{"type":"Feature","properties":{"OBJECTID":1507,"id":"211","name":"Piers Park","lat":"","long":"","nbBikes":"","nbEmptyDocks":"","latestUpdateTime":""},"geometry":{"type":"Point","coordinates":[-71.03625655173964,42.365431545965286]}},{"type":"Feature","properties":{"OBJECTID":1508,"id":"212","name":"Maverick Square - Lewis Mall","lat":"","long":"","nbBikes":"","nbEmptyDocks":"","latestUpdateTime":""},"geometry":{"type":"Point","coordinates":[-71.03977829260644,42.36884408293348]}},{"type":"Feature","properties":{"OBJECTID":1509,"id":"213","name":"East Boston Neighborhood Health Center - 20 Maverick Square","lat":"","long":"","nbBikes":"","nbEmptyDocks":"","latestUpdateTime":""},"geometry":{"type":"Point","coordinates":[-71.03943100032436,42.369535999747974]}},{"type":"Feature","properties":{"OBJECTID":1510,"id":"214","name":"Airport T Stop - Bremen St at Brooks St","lat":"","long":"","nbBikes":"","nbEmptyDocks":"","latestUpdateTime":""},"geometry":{"type":"Point","coordinates":[-71.03130400033943,42.375339000269136]}},{"type":"Feature","properties":{"OBJECTID":1511,"id":"215","name":"The Eddy - New St at Sumner St","lat":"","long":"","nbBikes":"","nbEmptyDocks":"","latestUpdateTime":""},"geometry":{"type":"Point","coordinates":[-71.0442009996858,42.37074399995098]}},{"type":"Feature","properties":{"OBJECTID":1512,"id":"216","name":"Glendon St at Condor St","lat":"","long":"","nbBikes":"","nbEmptyDocks":"","latestUpdateTime":""},"geometry":{"type":"Point","coordinates":[-71.03024303878489,42.382403776961304]}},{"type":"Feature","properties":{"OBJECTID":1513,"id":"217","name":"Orient Heights T Stop - Bennington St at Saratoga St","lat":"","long":"","nbBikes":"","nbEmptyDocks":"","latestUpdateTime":""},"geometry":{"type":"Point","coordinates":[-71.00609800020408,42.3867810000602]}},{"type":"Feature","properties":{"OBJECTID":1514,"id":"218","name":"Watermark Seaport - Boston Wharf Rd at Seaport Blvd","lat":"","long":"","nbBikes":"","nbEmptyDocks":"","latestUpdateTime":""},"geometry":{"type":"Point","coordinates":[-71.04569256328186,42.35158600114931]}},{"type":"Feature","properties":{"OBJECTID":1515,"id":"219","name":"Central Square - East Boston","lat":"","long":"","nbBikes":"","nbEmptyDocks":"","latestUpdateTime":""},"geometry":{"type":"Point","coordinates":[-71.03807777189215,42.37430732287656]}},{"type":"Feature","properties":{"OBJECTID":1516,"id":"221","name":"Verizon Innovation Hub 10 Ware Street","lat":"","long":"","nbBikes":"","nbEmptyDocks":"","latestUpdateTime":""},"geometry":{"type":"Point","coordinates":[-71.11305356041332,42.372508650297725]}},{"type":"Feature","properties":{"OBJECTID":1517,"id":"224","name":"Fresh Pond Reservation","lat":"","long":"","nbBikes":"","nbEmptyDocks":"","latestUpdateTime":""},"geometry":{"type":"Point","coordinates":[-71.14347895111412,42.38267827509893]}},{"type":"Feature","properties":{"OBJECTID":1518,"id":"226","name":"Commonwealth Ave At Babcock St","lat":"","long":"","nbBikes":"","nbEmptyDocks":"","latestUpdateTime":""},"geometry":{"type":"Point","coordinates":[-71.121262460701,42.35154734820824]}},{"type":"Feature","properties":{"OBJECTID":1519,"id":"227","name":"Silber Way","lat":"","long":"","nbBikes":"","nbEmptyDocks":"","latestUpdateTime":""},"geometry":{"type":"Point","coordinates":[-71.10057592428596,42.34949599496042]}}]};